<kml xmlns="http://www.opengis.net/kml/2.2">
   <Document>
      <name>1240-1300</name>
      <Placemark>
         <name>Afons' Eanes do Coton</name>
         <description>Negreira</description>
         <Style>
            <IconStyle>
               <Icon>
                  <href>http://www.obdurodon.org/~heb43/images/poet3.png</href>
               </Icon>
            </IconStyle>
         </Style>
         <Point>
            <coordinates>-8.736629,42.910065,100</coordinates>
         </Point>
      </Placemark>
      <Placemark>
         <name>Afonso Fernandez Cebolhilha</name>
         <description>Sevilla</description>
         <Style>
            <IconStyle>
               <Icon>
                  <href>http://www.obdurodon.org/~heb43/images/poet3.png</href>
               </Icon>
            </IconStyle>
         </Style>
         <Point>
            <coordinates>-5.986944,37.377222,100</coordinates>
         </Point>
      </Placemark>
      <Placemark>
         <name>Afonso Mendez de Besteiros</name>
         <description>São Cosme de Besteiros</description>
         <Style>
            <IconStyle>
               <Icon>
                  <href>http://www.obdurodon.org/~heb43/images/poet3.png</href>
               </Icon>
            </IconStyle>
         </Style>
         <Point>
            <coordinates>-8.348087,41.221282,100</coordinates>
         </Point>
      </Placemark>
      <Placemark>
         <name>Afonso Paez de Braga</name>
         <description>Braga</description>
         <Style>
            <IconStyle>
               <Icon>
                  <href>http://www.obdurodon.org/~heb43/images/poet3.png</href>
               </Icon>
            </IconStyle>
         </Style>
         <Point>
            <coordinates>-8.419533,41.549331,100</coordinates>
         </Point>
      </Placemark>
      <Placemark>
         <name>Airas Paez</name>
         <description>Reza</description>
         <Style>
            <IconStyle>
               <Icon>
                  <href>http://www.obdurodon.org/~heb43/images/poet3.png</href>
               </Icon>
            </IconStyle>
         </Style>
         <Point>
            <coordinates>-7.89,42.3492067,100</coordinates>
         </Point>
      </Placemark>
      <Placemark>
         <name>Airas Perez Vuitoron</name>
         <description>Terras do Deza</description>
         <Style>
            <IconStyle>
               <Icon>
                  <href>http://www.obdurodon.org/~heb43/images/poet3.png</href>
               </Icon>
            </IconStyle>
         </Style>
         <Point>
            <coordinates>-8.110096,42.660024,100</coordinates>
         </Point>
      </Placemark>
      <Placemark>
         <name>Alfonso Lopez de Baião</name>
         <description>Baião</description>
         <Style>
            <IconStyle>
               <Icon>
                  <href>http://www.obdurodon.org/~heb43/images/poet3.png</href>
               </Icon>
            </IconStyle>
         </Style>
         <Point>
            <coordinates>-8.050259,41.177488,100</coordinates>
         </Point>
      </Placemark>
      <Placemark>
         <name>Arnaldo</name>
         <description>Tolosa</description>
         <Style>
            <IconStyle>
               <Icon>
                  <href>http://www.obdurodon.org/~heb43/images/poet-dub.png</href>
               </Icon>
            </IconStyle>
         </Style>
         <Point>
            <coordinates>1.444,43.6045,100</coordinates>
         </Point>
      </Placemark>
      <Placemark>
         <name>Bonifaci Calvo</name>
         <description>Genoa</description>
         <Style>
            <IconStyle>
               <Icon>
                  <href>http://www.obdurodon.org/~heb43/images/poet3.png</href>
               </Icon>
            </IconStyle>
         </Style>
         <Point>
            <coordinates>8.932778,44.411111,100</coordinates>
         </Point>
      </Placemark>
      <Placemark>
         <name>Caldeiron</name>
         <description>Aragão</description>
         <Style>
            <IconStyle>
               <Icon>
                  <href>http://www.obdurodon.org/~heb43/images/poet-dub.png</href>
               </Icon>
            </IconStyle>
         </Style>
         <Point>
            <coordinates>-0.9,42,100</coordinates>
         </Point>
      </Placemark>
      <Placemark>
         <name>Estevan Faian</name>
         <description>Leon</description>
         <Style>
            <IconStyle>
               <Icon>
                  <href>http://www.obdurodon.org/~heb43/images/poet3.png</href>
               </Icon>
            </IconStyle>
         </Style>
         <Point>
            <coordinates>-5.6,42.5,100</coordinates>
         </Point>
      </Placemark>
      <Placemark>
         <name>Estevan Faian</name>
         <description>Faian (Ribadavia)</description>
         <Style>
            <IconStyle>
               <Icon>
                  <href>http://www.obdurodon.org/~heb43/images/poet3.png</href>
               </Icon>
            </IconStyle>
         </Style>
         <Point>
            <coordinates>-7.485082,43.475226,100</coordinates>
         </Point>
      </Placemark>
      <Placemark>
         <name>Estevan Perez Froian</name>
         <description>Froião, Paredes de
                            Coura</description>
         <Style>
            <IconStyle>
               <Icon>
                  <href>http://www.obdurodon.org/~heb43/images/poet3.png</href>
               </Icon>
            </IconStyle>
         </Style>
         <Point>
            <coordinates>-8.558,41.912,100</coordinates>
         </Point>
      </Placemark>
      <Placemark>
         <name>Estevan Reimondo</name>
         <description>Porto Carreiro</description>
         <Style>
            <IconStyle>
               <Icon>
                  <href>http://www.obdurodon.org/~heb43/images/poet3.png</href>
               </Icon>
            </IconStyle>
         </Style>
         <Point>
            <coordinates>-8.416648,41.266480,100</coordinates>
         </Point>
      </Placemark>
      <Placemark>
         <name>Fernan Fernandez Cogominho</name>
         <description>Chaves</description>
         <Style>
            <IconStyle>
               <Icon>
                  <href>http://www.obdurodon.org/~heb43/images/poet3.png</href>
               </Icon>
            </IconStyle>
         </Style>
         <Point>
            <coordinates>-7.468215,41.740926,100</coordinates>
         </Point>
      </Placemark>
      <Placemark>
         <name>Fernan Figueira</name>
         <description>Lemos</description>
         <Style>
            <IconStyle>
               <Icon>
                  <href>http://www.obdurodon.org/~heb43/images/poet3.png</href>
               </Icon>
            </IconStyle>
         </Style>
         <Point>
            <coordinates>-7.519520,42.549670,100</coordinates>
         </Point>
      </Placemark>
      <Placemark>
         <name>Fernan Gonçalvez de Seabra</name>
         <description>Vinhais, Trás-os-Montes (Brahança)</description>
         <Style>
            <IconStyle>
               <Icon>
                  <href>http://www.obdurodon.org/~heb43/images/poet3.png</href>
               </Icon>
            </IconStyle>
         </Style>
         <Point>
            <coordinates>-7.006722,41.832233,100</coordinates>
         </Point>
      </Placemark>
      <Placemark>
         <name>Fernan Soarez de Quinhones</name>
         <description> Quiñones del Río</description>
         <Style>
            <IconStyle>
               <Icon>
                  <href>http://www.obdurodon.org/~heb43/images/poet3.png</href>
               </Icon>
            </IconStyle>
         </Style>
         <Point>
            <coordinates>-5.826969,42.552194,100</coordinates>
         </Point>
      </Placemark>
      <Placemark>
         <name>Fernand' Esquio</name>
         <description>Terras do Neda</description>
         <Style>
            <IconStyle>
               <Icon>
                  <href>http://www.obdurodon.org/~heb43/images/poet3.png</href>
               </Icon>
            </IconStyle>
         </Style>
         <Point>
            <coordinates>-8.156906,43.499886,100</coordinates>
         </Point>
      </Placemark>
      <Placemark>
         <name>Gomez Garcia</name>
         <description>Toledo</description>
         <Style>
            <IconStyle>
               <Icon>
                  <href>http://www.obdurodon.org/~heb43/images/poet3.png</href>
               </Icon>
            </IconStyle>
         </Style>
         <Point>
            <coordinates>-4.024815,39.860365,100</coordinates>
         </Point>
      </Placemark>
      <Placemark>
         <name>Gonçal' Eanes do Vinhal</name>
         <description>Rexión entre Felgueiras e Celorico de Basto</description>
         <Style>
            <IconStyle>
               <Icon>
                  <href>http://www.obdurodon.org/~heb43/images/poet3.png</href>
               </Icon>
            </IconStyle>
         </Style>
         <Point>
            <coordinates>-8.077491,41.370758,100</coordinates>
         </Point>
      </Placemark>
      <Placemark>
         <name>Johan Airas</name>
         <description>Santiago de Compostela</description>
         <Style>
            <IconStyle>
               <Icon>
                  <href>http://www.obdurodon.org/~heb43/images/poet3.png</href>
               </Icon>
            </IconStyle>
         </Style>
         <Point>
            <coordinates>-8.541251,42.880771,100</coordinates>
         </Point>
      </Placemark>
      <Placemark>
         <name>Johan Baveca</name>
         <description>Galiza</description>
         <Style>
            <IconStyle>
               <Icon>
                  <href>http://www.obdurodon.org/~heb43/images/poet-dub.png</href>
               </Icon>
            </IconStyle>
         </Style>
         <Point>
            <coordinates>-8.097385,42.743476,100</coordinates>
         </Point>
      </Placemark>
      <Placemark>
         <name>Johan Garcia de Guilhade</name>
         <description>Milhazes, Barcelos</description>
         <Style>
            <IconStyle>
               <Icon>
                  <href>http://www.obdurodon.org/~heb43/images/poet3.png</href>
               </Icon>
            </IconStyle>
         </Style>
         <Point>
            <coordinates>-8.660556,41.490833,100</coordinates>
         </Point>
      </Placemark>
      <Placemark>
         <name>Johan Lobeira</name>
         <description>Lobeira</description>
         <Style>
            <IconStyle>
               <Icon>
                  <href>http://www.obdurodon.org/~heb43/images/poet3.png</href>
               </Icon>
            </IconStyle>
         </Style>
         <Point>
            <coordinates>-8.039395,41.984776,100</coordinates>
         </Point>
      </Placemark>
      <Placemark>
         <name>Johan Lopez de Ulhoa</name>
         <description>Terras de Monterroso</description>
         <Style>
            <IconStyle>
               <Icon>
                  <href>http://www.obdurodon.org/~heb43/images/poet3.png</href>
               </Icon>
            </IconStyle>
         </Style>
         <Point>
            <coordinates>-7.833271,42.794063,100</coordinates>
         </Point>
      </Placemark>
      <Placemark>
         <name>Johan Perez d' Aboim</name>
         <description>Aboim da Nóbrega</description>
         <Style>
            <IconStyle>
               <Icon>
                  <href>http://www.obdurodon.org/~heb43/images/poet3.png</href>
               </Icon>
            </IconStyle>
         </Style>
         <Point>
            <coordinates> -8.391344,41.750190,100</coordinates>
         </Point>
      </Placemark>
      <Placemark>
         <name>Johan Romeu de Lugo</name>
         <description>Lugo</description>
         <Style>
            <IconStyle>
               <Icon>
                  <href>http://www.obdurodon.org/~heb43/images/poet3.png</href>
               </Icon>
            </IconStyle>
         </Style>
         <Point>
            <coordinates>-7.554869,43.010338,100</coordinates>
         </Point>
      </Placemark>
      <Placemark>
         <name>Johan Soarez Coelho</name>
         <description>Ribadouro</description>
         <Style>
            <IconStyle>
               <Icon>
                  <href>http://www.obdurodon.org/~heb43/images/poet3.png</href>
               </Icon>
            </IconStyle>
         </Style>
         <Point>
            <coordinates>-8.076944,41.098333,100</coordinates>
         </Point>
      </Placemark>
      <Placemark>
         <name>Johan Vasquis de Talaveira</name>
         <description>Talavera de la Reina</description>
         <Style>
            <IconStyle>
               <Icon>
                  <href>http://www.obdurodon.org/~heb43/images/poet3.png</href>
               </Icon>
            </IconStyle>
         </Style>
         <Point>
            <coordinates>-4.830143,39.961801,100</coordinates>
         </Point>
      </Placemark>
      <Placemark>
         <name>Johan Vello de Pedrogaez</name>
         <description>Forjães</description>
         <Style>
            <IconStyle>
               <Icon>
                  <href>http://www.obdurodon.org/~heb43/images/poet3.png</href>
               </Icon>
            </IconStyle>
         </Style>
         <Point>
            <coordinates>-8.742969,41.604657,100</coordinates>
         </Point>
      </Placemark>
      <Placemark>
         <name>Lourenzo</name>
         <description>Portugal</description>
         <Style>
            <IconStyle>
               <Icon>
                  <href>http://www.obdurodon.org/~heb43/images/poet-dub.png</href>
               </Icon>
            </IconStyle>
         </Style>
         <Point>
            <coordinates>-8.1,39.8,100</coordinates>
         </Point>
      </Placemark>
      <Placemark>
         <name>Martin Moxa</name>
         <description>Santiago de Compostela</description>
         <Style>
            <IconStyle>
               <Icon>
                  <href>http://www.obdurodon.org/~heb43/images/poet3.png</href>
               </Icon>
            </IconStyle>
         </Style>
         <Point>
            <coordinates>-8.541251,42.880771,100</coordinates>
         </Point>
      </Placemark>
      <Placemark>
         <name>Martin Soarez</name>
         <description>Riba de Lima (Minho)</description>
         <Style>
            <IconStyle>
               <Icon>
                  <href>http://www.obdurodon.org/~heb43/images/poet3.png</href>
               </Icon>
            </IconStyle>
         </Style>
         <Point>
            <coordinates>-8.833333,41.683333,100</coordinates>
         </Point>
      </Placemark>
      <Placemark>
         <name>Men Rodriguez Tenoiro</name>
         <description>Pontevedra</description>
         <Style>
            <IconStyle>
               <Icon>
                  <href>http://www.obdurodon.org/~heb43/images/poet3.png</href>
               </Icon>
            </IconStyle>
         </Style>
         <Point>
            <coordinates>-8.644538,42.429078,100</coordinates>
         </Point>
      </Placemark>
      <Placemark>
         <name>Men Rodriguez de Briteiros</name>
         <description>Briteiros</description>
         <Style>
            <IconStyle>
               <Icon>
                  <href>http://www.obdurodon.org/~heb43/images/poet3.png</href>
               </Icon>
            </IconStyle>
         </Style>
         <Point>
            <coordinates>-8.319,41.5165051,100</coordinates>
         </Point>
      </Placemark>
      <Placemark>
         <name>Nuno Fernandez Torneol</name>
         <description>Santiago de Compostela</description>
         <Style>
            <IconStyle>
               <Icon>
                  <href>http://www.obdurodon.org/~heb43/images/poet3.png</href>
               </Icon>
            </IconStyle>
         </Style>
         <Point>
            <coordinates>-8.541251,42.880771,100</coordinates>
         </Point>
      </Placemark>
      <Placemark>
         <name>Nuno Fernandez Torneol</name>
         <description>Santiago de Compostela</description>
         <Style>
            <IconStyle>
               <Icon>
                  <href>http://www.obdurodon.org/~heb43/images/poet3.png</href>
               </Icon>
            </IconStyle>
         </Style>
         <Point>
            <coordinates>-8.541251,42.880771,100</coordinates>
         </Point>
      </Placemark>
      <Placemark>
         <name>Nun´Eanes Cêrzeo</name>
         <description>Cercio (Lalín)</description>
         <Style>
            <IconStyle>
               <Icon>
                  <href>http://www.obdurodon.org/~heb43/images/poet3.png</href>
               </Icon>
            </IconStyle>
         </Style>
         <Point>
            <coordinates>-8.119226,42.756304,100</coordinates>
         </Point>
      </Placemark>
      <Placemark>
         <name>Pai Gomez Charinho</name>
         <description>Pontevedra</description>
         <Style>
            <IconStyle>
               <Icon>
                  <href>http://www.obdurodon.org/~heb43/images/poet3.png</href>
               </Icon>
            </IconStyle>
         </Style>
         <Point>
            <coordinates>-8.65,42.433333,100</coordinates>
         </Point>
      </Placemark>
      <Placemark>
         <name>Pai da Cana</name>
         <description>Santiago de Compostela</description>
         <Style>
            <IconStyle>
               <Icon>
                  <href>http://www.obdurodon.org/~heb43/images/poet3.png</href>
               </Icon>
            </IconStyle>
         </Style>
         <Point>
            <coordinates>-8.541251,42.880771,100</coordinates>
         </Point>
      </Placemark>
      <Placemark>
         <name>Pero Garcia Burgalês</name>
         <description>Burgos</description>
         <Style>
            <IconStyle>
               <Icon>
                  <href>http://www.obdurodon.org/~heb43/images/poet3.png</href>
               </Icon>
            </IconStyle>
         </Style>
         <Point>
            <coordinates>-3.6946,42.344126,100</coordinates>
         </Point>
      </Placemark>
      <Placemark>
         <name>Pero Gomez Barroso</name>
         <description>Terras de Barroso</description>
         <Style>
            <IconStyle>
               <Icon>
                  <href>http://www.obdurodon.org/~heb43/images/poet3.png</href>
               </Icon>
            </IconStyle>
         </Style>
         <Point>
            <coordinates>-7.79,41.823889,100</coordinates>
         </Point>
      </Placemark>
      <Placemark>
         <name>Pero Gonçalvez de Porto Carreiro</name>
         <description>Porto Carreiro</description>
         <Style>
            <IconStyle>
               <Icon>
                  <href>http://www.obdurodon.org/~heb43/images/poet3.png</href>
               </Icon>
            </IconStyle>
         </Style>
         <Point>
            <coordinates>-8.595628,41.435510,100</coordinates>
         </Point>
      </Placemark>
      <Placemark>
         <name>Pero Goterrez</name>
         <description>Leão</description>
         <Style>
            <IconStyle>
               <Icon>
                  <href>http://www.obdurodon.org/~heb43/images/poet-dub.png</href>
               </Icon>
            </IconStyle>
         </Style>
         <Point>
            <coordinates>-5.57,42.7,100</coordinates>
         </Point>
      </Placemark>
      <Placemark>
         <name>Pero Mafaldo</name>
         <description>Souto de Rebordões</description>
         <Style>
            <IconStyle>
               <Icon>
                  <href>http://www.obdurodon.org/~heb43/images/poet3.png</href>
               </Icon>
            </IconStyle>
         </Style>
         <Point>
            <coordinates>-8.561696,41.724558,100</coordinates>
         </Point>
      </Placemark>
      <Placemark>
         <name>Pero Mendiz da Fonseca</name>
         <description>São Martinho de Mouros (Lamego)</description>
         <Style>
            <IconStyle>
               <Icon>
                  <href>http://www.obdurodon.org/~heb43/images/poet3.png</href>
               </Icon>
            </IconStyle>
         </Style>
         <Point>
            <coordinates>-7.896737,41.103286,100</coordinates>
         </Point>
      </Placemark>
      <Placemark>
         <name>Pero d'Armea</name>
         <description>Armea (Betanzos)</description>
         <Style>
            <IconStyle>
               <Icon>
                  <href>http://www.obdurodon.org/~heb43/images/poet3.png</href>
               </Icon>
            </IconStyle>
         </Style>
         <Point>
            <coordinates>-8.183,43.2728212,100</coordinates>
         </Point>
      </Placemark>
      <Placemark>
         <name>Pero da Ponte</name>
         <description>Pontevedra</description>
         <Style>
            <IconStyle>
               <Icon>
                  <href>http://www.obdurodon.org/~heb43/images/poet3.png</href>
               </Icon>
            </IconStyle>
         </Style>
         <Point>
            <coordinates>-8.667735,42.463092,100</coordinates>
         </Point>
      </Placemark>
      <Placemark>
         <name>Picandon</name>
         <description>Occitania</description>
         <Style>
            <IconStyle>
               <Icon>
                  <href>http://www.obdurodon.org/~heb43/images/poet-dub.png</href>
               </Icon>
            </IconStyle>
         </Style>
         <Point>
            <coordinates>-0.578333,44.838611,100</coordinates>
         </Point>
      </Placemark>
      <Placemark>
         <name>Rodrigu' Eanes Redondo</name>
         <description>Barcelos</description>
         <Style>
            <IconStyle>
               <Icon>
                  <href>http://www.obdurodon.org/~heb43/images/poet3.png</href>
               </Icon>
            </IconStyle>
         </Style>
         <Point>
            <coordinates>-8.6202183,41.5342131,100</coordinates>
         </Point>
      </Placemark>
      <Placemark>
         <name>Rodrigu' Eanes d' Alvares</name>
         <description>Dálvares</description>
         <Style>
            <IconStyle>
               <Icon>
                  <href>http://www.obdurodon.org/~heb43/images/poet3.png</href>
               </Icon>
            </IconStyle>
         </Style>
         <Point>
            <coordinates>-7.758272,41.036356,100</coordinates>
         </Point>
      </Placemark>
      <Placemark>
         <name>Rodrigu' Eanes de Vasconcelos</name>
         <description>Santa Maria dos Ferreiros (Amares)</description>
         <Style>
            <IconStyle>
               <Icon>
                  <href>http://www.obdurodon.org/~heb43/images/poet3.png</href>
               </Icon>
            </IconStyle>
         </Style>
         <Point>
            <coordinates>-8.362,41.626,100</coordinates>
         </Point>
      </Placemark>
      <Placemark>
         <name>Roi Fernandiz de Santiago</name>
         <description>Santiago de Compostela</description>
         <Style>
            <IconStyle>
               <Icon>
                  <href>http://www.obdurodon.org/~heb43/images/poet3.png</href>
               </Icon>
            </IconStyle>
         </Style>
         <Point>
            <coordinates>-8.541251,42.880771,100</coordinates>
         </Point>
      </Placemark>
      <Placemark>
         <name>Roi Martinz d' Ulveira</name>
         <description>Oliveira, Arcos de Valdevez</description>
         <Style>
            <IconStyle>
               <Icon>
                  <href>http://www.obdurodon.org/~heb43/images/poet3.png</href>
               </Icon>
            </IconStyle>
         </Style>
         <Point>
            <coordinates>-8.393688,41.825125,100</coordinates>
         </Point>
      </Placemark>
      <Placemark>
         <name>Roi Martinz do Casal</name>
         <description>Outeiro, Vila do Conde</description>
         <Style>
            <IconStyle>
               <Icon>
                  <href>http://www.obdurodon.org/~heb43/images/poet3.png</href>
               </Icon>
            </IconStyle>
         </Style>
         <Point>
            <coordinates>-8.703222,41.342444,100</coordinates>
         </Point>
      </Placemark>
      <Placemark>
         <name>Roi Paez de Ribela</name>
         <description>Monfero</description>
         <Style>
            <IconStyle>
               <Icon>
                  <href>http://www.obdurodon.org/~heb43/images/poet3.png</href>
               </Icon>
            </IconStyle>
         </Style>
         <Point>
            <coordinates>-8.008970,43.308654,100</coordinates>
         </Point>
      </Placemark>
      <Placemark>
         <name>Roi Queimado</name>
         <description>Sabadim</description>
         <Style>
            <IconStyle>
               <Icon>
                  <href>http://www.obdurodon.org/~heb43/images/poet3.png</href>
               </Icon>
            </IconStyle>
         </Style>
         <Point>
            <coordinates>-8.4425,41.906111,100</coordinates>
         </Point>
      </Placemark>
      <Placemark>
         <name>Vasco Gil</name>
         <description>Sousa</description>
         <Style>
            <IconStyle>
               <Icon>
                  <href>http://www.obdurodon.org/~heb43/images/poet3.png</href>
               </Icon>
            </IconStyle>
         </Style>
         <Point>
            <coordinates>-8.245,41.35,100</coordinates>
         </Point>
      </Placemark>
   </Document>
</kml>
